{"category_code":"games_video","founded_year":2006,"name":"Joost","number_of_employees":0.0,"offices":{"type":"Point","coordinates":[-74.0094471,40.7464969]},"total_money_raised":45000}
{"category_code":"games_video","founded_year":2006,"name":"Kyte","number_of_employees":40.0,"offices":{"type":"Point","coordinates":[-122.409173,37.788482]},"total_money_raised":23000}
{"category_code":"games_video","founded_year":2005,"name":"YouTube","number_of_employees":0.0,"offices":{"type":"Point","coordinates":[-122.426804,37.627971]},"total_money_raised":11000}
{"category_code":"games_video","founded_year":2007,"name":"Livestream","number_of_employees":120.0,"offices":{"type":"Point","coordinates":[-73.995625,40.726155]},"total_money_raised":14000}
{"category_code":"games_video","founded_year":2007,"name":"AdaptiveBlue","number_of_employees":15.0,"offices":{"type":"Point","coordinates":[-74.3372,40.801358]},"total_money_raised":24000}
{"category_code":"games_video","founded_year":2007,"name":"Ustream","number_of_employees":250.0,"offices":{"type":"Point","coordinates":[-122.07948,37.392936]},"total_money_raised":60000}
{"category_code":"games_video","founded_year":2004,"name":"Pando Networks","number_of_employees":23.0,"offices":{"type":"Point","coordinates":[-73.99873,40.722655]},"total_money_raised":11000}
{"category_code":"games_video","founded_year":2006,"name":"CastTV","number_of_employees":0.0,"offices":{"type":"Point","coordinates":[-122.393913,37.780716]},"total_money_raised":3000}
{"category_code":"games_video","founded_year":2005,"name":"RockYou","number_of_employees":106.0,"offices":{"type":"Point","coordinates":[-122.206893,37.484619]},"total_money_raised":136000}
{"category_code":"games_video","founded_year":2002,"name":"iLike","number_of_employees":28.0,"offices":{"type":"Point","coordinates":[-122.323408,47.615313]},"total_money_raised":16000}
{"category_code":"games_video","founded_year":2003,"name":"hi5","number_of_employees":100.0,"offices":{"type":"Point","coordinates":[-122.400558,37.788668]},"total_money_raised":52000}
{"category_code":"games_video","founded_year":2006,"name":"Curse","number_of_employees":58.0,"offices":{"type":"Point","coordinates":[-122.399972,37.787092]},"total_money_raised":12000}
{"category_code":"games_video","founded_year":2005,"name":"Vuze","number_of_employees":20.0,"offices":{"type":"Point","coordinates":[-122.2262606,37.4858654]},"total_money_raised":34000}
{"category_code":"games_video","founded_year":2005,"name":"BuddyTV","number_of_employees":20.0,"offices":{"type":"Point","coordinates":[-122.356756,47.61968]},"total_money_raised":10000}
{"category_code":"games_video","founded_year":2006,"name":"Aniboom","number_of_employees":25.0,"offices":{"type":"Point","coordinates":[34.851612,31.046051]},"total_money_raised":14000}
{"category_code":"games_video","founded_year":2006,"name":"Kongregate","number_of_employees":20.0,"offices":{"type":"Point","coordinates":[-122.401245,37.786942]},"total_money_raised":19000}
{"category_code":"games_video","founded_year":2005,"name":"MocoSpace","number_of_employees":25.0,"offices":{"type":"Point","coordinates":[-71.058768,42.350274]},"total_money_raised":10000}
{"category_code":"games_video","founded_year":2006,"name":"OMGPOP","number_of_employees":50.0,"offices":{"type":"Point","coordinates":[-74.001704,40.723384]},"total_money_raised":16000}
{"category_code":"games_video","founded_year":2008,"name":"Crunchyroll","number_of_employees":50.0,"offices":{"type":"Point","coordinates":[-122.393229,37.781265]},"total_money_raised":4000}
{"category_code":"games_video","founded_year":2007,"name":"hulu","number_of_employees":153.0,"offices":{"type":"Point","coordinates":[-118.456806,34.031276]},"total_money_raised":100000}
{"category_code":"games_video","founded_year":2006,"name":"FlowPlay","number_of_employees":30.0,"offices":{"type":"Point","coordinates":[-122.335943,47.6015315]},"total_money_raised":3000}
{"category_code":"games_video","founded_year":2005,"name":"mig33","number_of_employees":100.0,"offices":{"type":"Point","coordinates":[-122.343679,37.580304]},"total_money_raised":32000}
{"category_code":"games_video","founded_year":2006,"name":"Realius","number_of_employees":3.0,"offices":{"type":"Point","coordinates":[-122.26999,37.887864]},"total_money_raised":500000}
{"category_code":"games_video","founded_year":2006,"name":"Metaplace","number_of_employees":12.0,"offices":{"type":"Point","coordinates":[-117.077311,33.020832]},"total_money_raised":9000}
{"category_code":"games_video","founded_year":2006,"name":"Veodia","number_of_employees":15.0,"offices":{"type":"Point","coordinates":[-122.300246,37.553743]},"total_money_raised":8000}
{"category_code":"games_video","founded_year":2005,"name":"Zattoo","number_of_employees":45.0,"offices":{"type":"Point","coordinates":[-83.734673,42.292649]},"total_money_raised":10000}
{"category_code":"games_video","founded_year":2007,"name":"GotCast","number_of_employees":5.0,"offices":{"type":"Point","coordinates":[-118.468672,34.064139]},"total_money_raised":50000}
{"category_code":"games_video","founded_year":2003,"name":"Kewego","number_of_employees":65.0,"offices":{"type":"Point","coordinates":[2.213749,46.227638]},"total_money_raised":19000}
{"category_code":"games_video","founded_year":2007,"name":"Zynga","number_of_employees":115.0,"offices":{"type":"Point","coordinates":[-122.404234,37.765158]},"total_money_raised":860000}
{"category_code":"games_video","founded_year":2006,"name":"WorldTV","number_of_employees":5.0,"offices":{"type":"Point","coordinates":[-8.6267726,52.6638571]},"total_money_raised":1000}
{"category_code":"games_video","founded_year":1997,"name":"Netflix","number_of_employees":2000.0,"offices":{"type":"Point","coordinates":[-121.968687,37.25142]},"total_money_raised":230000}
{"category_code":"games_video","founded_year":2011,"name":"Social Gaming Network","number_of_employees":100.0,"offices":{"type":"Point","coordinates":[-122.161523,37.446823]},"total_money_raised":17000}
{"category_code":"games_video","founded_year":2006,"name":"RiffTrax","number_of_employees":8.0,"offices":{"type":"Point","coordinates":[-117.240431,32.936973]},"total_money_raised":5000}
{"category_code":"games_video","founded_year":2007,"name":"Redux","number_of_employees":11.0,"offices":{"type":"Point","coordinates":[-122.269494,37.87168]},"total_money_raised":8000}
{"category_code":"games_video","founded_year":2004,"name":"2threads","number_of_employees":30.0,"offices":{"type":"Point","coordinates":[151.216427,-33.884685]},"total_money_raised":300000}
{"category_code":"games_video","founded_year":2001,"name":"Boonty","number_of_employees":150.0,"offices":{"type":"Point","coordinates":[-74.002662,40.717248]},"total_money_raised":10000}
{"category_code":"games_video","founded_year":2007,"name":"Taltopia","number_of_employees":3.0,"offices":{"type":"Point","coordinates":[-118.243425,34.052187]},"total_money_raised":800000}
{"category_code":"games_video","founded_year":2007,"name":"ScanDigital","number_of_employees":17.0,"offices":{"type":"Point","coordinates":[-118.41747,33.918151]},"total_money_raised":350000}
{"category_code":"games_video","founded_year":2007,"name":"XIHA","number_of_employees":8.0,"offices":{"type":"Point","coordinates":[24.9410012,60.1681494]},"total_money_raised":1000}
{"category_code":"games_video","founded_year":2007,"name":"MyMiniLife","number_of_employees":4.0,"offices":{"type":"Point","coordinates":[-122.159928,37.437328]},"total_money_raised":430000}
{"category_code":"games_video","founded_year":2007,"name":"Mytopia","number_of_employees":29.0,"offices":{"type":"Point","coordinates":[-118.489681,34.007967]},"total_money_raised":3000}
{"category_code":"games_video","founded_year":2002,"name":"Realtime Worlds","number_of_employees":225.0,"offices":{"type":"Point","coordinates":[-2.968111,56.461428]},"total_money_raised":82000}
{"category_code":"games_video","founded_year":2008,"name":"AudioMicro","number_of_employees":10.0,"offices":{"type":"Point","coordinates":[-118.422495,34.153588]},"total_money_raised":1000}
{"category_code":"games_video","founded_year":2005,"name":"Cellufun","number_of_employees":30.0,"offices":{"type":"Point","coordinates":[-73.9930489,40.73993]},"total_money_raised":5000}
{"category_code":"games_video","founded_year":2007,"name":"eRepublik","number_of_employees":30.0,"offices":{"type":"Point","coordinates":[-3.6952896,40.43094]},"total_money_raised":2000}
{"category_code":"games_video","founded_year":1963,"name":"Comcast","number_of_employees":100000.0,"offices":{"type":"Point","coordinates":[-75.1652518,39.9525762]},"total_money_raised":725000}
{"category_code":"games_video","founded_year":2007,"name":"MUBI","number_of_employees":20.0,"offices":{"type":"Point","coordinates":[-122.161025,37.44236]},"total_money_raised":8000}
{"category_code":"games_video","founded_year":2007,"name":"Modern Feed","number_of_employees":123.0,"offices":{"type":"Point","coordinates":[-118.343791,34.085749]},"total_money_raised":3000}
{"category_code":"games_video","founded_year":2008,"name":"Serious Business","number_of_employees":22.0,"offices":{"type":"Point","coordinates":[-122.4013624,37.7893215]},"total_money_raised":4000}
{"category_code":"games_video","founded_year":2006,"name":"Kabam","number_of_employees":650.0,"offices":{"type":"Point","coordinates":[-122.0785314,37.3944561]},"total_money_raised":125000}
{"category_code":"games_video","founded_year":2008,"name":"Jinni","number_of_employees":35.0,"offices":{"type":"Point","coordinates":[34.7595,32.0554]},"total_money_raised":8000}
{"category_code":"games_video","founded_year":2006,"name":"sevenload","number_of_employees":67.0,"offices":{"type":"Point","coordinates":[6.921546,50.945289]},"total_money_raised":25000}
{"category_code":"games_video","founded_year":2007,"name":"MeFeedia","number_of_employees":13.0,"offices":{"type":"Point","coordinates":[-118.335292,34.155869]},"total_money_raised":250000}
{"category_code":"games_video","founded_year":2007,"name":"Sometrics","number_of_employees":35.0,"offices":{"type":"Point","coordinates":[-118.251343,34.048857]},"total_money_raised":5000}
{"category_code":"games_video","founded_year":2005,"name":"Fliqz","number_of_employees":25.0,"offices":{"type":"Point","coordinates":[-122.289498,37.848641]},"total_money_raised":12000}
{"category_code":"games_video","founded_year":2010,"name":"Titan Gaming","number_of_employees":18.0,"offices":{"type":"Point","coordinates":[-113.515769,53.544711]},"total_money_raised":1000}
{"category_code":"games_video","founded_year":2006,"name":"VBS TV","number_of_employees":100.0,"offices":{"type":"Point","coordinates":[-73.957968,40.720764]},"total_money_raised":10000}
{"category_code":"games_video","founded_year":2007,"name":"My Damn Channel","number_of_employees":10.0,"offices":{"type":"Point","coordinates":[-73.988543,40.754762]},"total_money_raised":8000}
{"category_code":"games_video","founded_year":2000,"name":"VISUALPLANT","number_of_employees":6.0,"offices":{"type":"Point","coordinates":[-73.998726,40.738476]},"total_money_raised":500000}
{"category_code":"games_video","founded_year":1996,"name":"GenArts","number_of_employees":15.0,"offices":{"type":"Point","coordinates":[-71.110276,42.369007]},"total_money_raised":22000}
{"category_code":"games_video","founded_year":2008,"name":"IBTgames","number_of_employees":11.0,"offices":{"type":"Point","coordinates":[90.401432,23.797333]},"total_money_raised":25000}
{"category_code":"games_video","founded_year":2000,"name":"iStreamPlanet","number_of_employees":50.0,"offices":{"type":"Point","coordinates":[-115.23671,36.059658]},"total_money_raised":15000}
{"category_code":"games_video","founded_year":2007,"name":"LOG607","number_of_employees":6.0,"offices":{"type":"Point","coordinates":[12.436354,45.564209]},"total_money_raised":600000}
{"category_code":"games_video","founded_year":2008,"name":"ngmoco","number_of_employees":150.0,"offices":{"type":"Point","coordinates":[-122.4015807,37.7705096]},"total_money_raised":44000}
{"category_code":"games_video","founded_year":2006,"name":"Wevod","number_of_employees":8.0,"offices":{"type":"Point","coordinates":[2.321213,48.846726]},"total_money_raised":300000}
{"category_code":"games_video","founded_year":2008,"name":"Tweegee","number_of_employees":22.0,"offices":{"type":"Point","coordinates":[34.8003705,32.037363]},"total_money_raised":3000}
{"category_code":"games_video","founded_year":1999,"name":"Groove Club","number_of_employees":5.0,"offices":{"type":"Point","coordinates":[-74.119948,40.809076]},"total_money_raised":83000}
{"category_code":"games_video","founded_year":2006,"name":"Wevod","number_of_employees":8.0,"offices":{"type":"Point","coordinates":[2.321213,48.846726]},"total_money_raised":300000}
{"category_code":"games_video","founded_year":2008,"name":"Tweegee","number_of_employees":22.0,"offices":{"type":"Point","coordinates":[34.8003705,32.037363]},"total_money_raised":3000}
{"category_code":"games_video","founded_year":1999,"name":"Groove Club","number_of_employees":5.0,"offices":{"type":"Point","coordinates":[-74.119948,40.809076]},"total_money_raised":83000}
{"category_code":"games_video","founded_year":2006,"name":"Radio One Llama","number_of_employees":10.0,"offices":{"type":"Point","coordinates":[-88.271074,40.1128]},"total_money_raised":1000}
{"category_code":"games_video","founded_year":2001,"name":"Apaja","number_of_employees":44.0,"offices":{"type":"Point","coordinates":[24.945167,60.171821]},"total_money_raised":1000}
{"category_code":"games_video","founded_year":2006,"name":"GotGame","number_of_employees":15.0,"offices":{"type":"Point","coordinates":[-122.395785,37.77772]},"total_money_raised":1000}
{"category_code":"games_video","founded_year":1999,"name":"The Game Creators","number_of_employees":7.0,"offices":{"type":"Point","coordinates":[-2.092073,53.296176]},"total_money_raised":25000}
{"category_code":"games_video","founded_year":2007,"name":"SureSpeak","number_of_employees":8.0,"offices":{"type":"Point","coordinates":[-87.632519,41.889183]},"total_money_raised":1000}
{"category_code":"games_video","founded_year":2006,"name":"Citizenside","number_of_employees":12.0,"offices":{"type":"Point","coordinates":[2.3179601,48.8926988]},"total_money_raised":1000}
{"category_code":"games_video","founded_year":2007,"name":"VIDDIX","number_of_employees":5.0,"offices":{"type":"Point","coordinates":[5.1682449,52.0848526]},"total_money_raised":100000}
{"category_code":"games_video","founded_year":2010,"name":"Tengaged","number_of_employees":1.0,"offices":{"type":"Point","coordinates":[2.1634249,41.4241228]},"total_money_raised":15000}
{"category_code":"games_video","founded_year":2003,"name":"RGB Networks","number_of_employees":125.0,"offices":{"type":"Point","coordinates":[-122.0216271,37.4123706]},"total_money_raised":52000}
{"category_code":"games_video","founded_year":2005,"name":"MyOtherDrive","number_of_employees":5.0,"offices":{"type":"Point","coordinates":[-84.1949463,39.7605421]},"total_money_raised":1000}
{"category_code":"games_video","founded_year":2007,"name":"CreationFlow","number_of_employees":4.0,"offices":{"type":"Point","coordinates":[-58.4339539,-34.6028583]},"total_money_raised":150000}
{"category_code":"games_video","founded_year":2006,"name":"Spoonfed","number_of_employees":16.0,"offices":{"type":"Point","coordinates":[-1.2186724,51.7577453]},"total_money_raised":477000}
{"category_code":"games_video","founded_year":2010,"name":"BASH Gaming","number_of_employees":25.0,"offices":{"type":"Point","coordinates":[-122.0780632,37.5561712]},"total_money_raised":1000}
{"category_code":"games_video","founded_year":2005,"name":"Geewa","number_of_employees":60.0,"offices":{"type":"Point","coordinates":[14.4505336,50.0938491]},"total_money_raised":1000}
{"category_code":"games_video","founded_year":2002,"name":"Major League Gaming","number_of_employees":45.0,"offices":{"type":"Point","coordinates":[-73.97593,40.752672]},"total_money_raised":69000}
{"category_code":"games_video","founded_year":2008,"name":"Dodreams","number_of_employees":6.0,"offices":{"type":"Point","coordinates":[24.9438568,60.1659819]},"total_money_raised":750000}
{"category_code":"games_video","founded_year":2004,"name":"Unity Technologies","number_of_employees":200.0,"offices":{"type":"Point","coordinates":[12.530107,55.6924605]},"total_money_raised":17000}
{"category_code":"games_video","founded_year":2008,"name":"SCVNGR","number_of_employees":60.0,"offices":{"type":"Point","coordinates":[-71.0680027,42.3406534]},"total_money_raised":40000}
{"category_code":"games_video","founded_year":2005,"name":"Owlient","number_of_employees":40.0,"offices":{"type":"Point","coordinates":[2.3032201,48.8308091]},"total_money_raised":3000}
{"category_code":"games_video","founded_year":2008,"name":"Arimaz","number_of_employees":5.0,"offices":{"type":"Point","coordinates":[6.5877024,46.5389248]},"total_money_raised":400000}
{"category_code":"games_video","founded_year":2009,"name":"Z2Live","number_of_employees":130.0,"offices":{"type":"Point","coordinates":[-122.3399782,47.6103008]},"total_money_raised":6000}
{"category_code":"games_video","founded_year":2004,"name":"Preview Networks","number_of_employees":26.0,"offices":{"type":"Point","coordinates":[12.5800751,55.6659813]},"total_money_raised":4000}
{"category_code":"games_video","founded_year":2007,"name":"Busca Corp","number_of_employees":45.0,"offices":{"type":"Point","coordinates":[-117.274602,32.841791]},"total_money_raised":5000}
{"category_code":"games_video","founded_year":2006,"name":"Saavn","number_of_employees":25.0,"offices":{"type":"Point","coordinates":[-73.98618,40.743877]},"total_money_raised":6000}
{"category_code":"games_video","founded_year":2000,"name":"2 Minutes","number_of_employees":105.0,"offices":{"type":"Point","coordinates":[2.3698033,48.8502056]},"total_money_raised":1000}
{"category_code":"games_video","founded_year":2008,"name":"BetKlub","number_of_employees":3.0,"offices":{"type":"Point","coordinates":[2.3639174,48.8787606]},"total_money_raised":91000}
{"category_code":"games_video","founded_year":2002,"name":"Bigpoint","number_of_employees":500.0,"offices":{"type":"Point","coordinates":[9.9762519,53.5973055]},"total_money_raised":420000}
{"category_code":"games_video","founded_year":1992,"name":"Exent","number_of_employees":100.0,"offices":{"type":"Point","coordinates":[-74.005568,40.7523796]},"total_money_raised":3000}
{"category_code":"games_video","founded_year":2009,"name":"Tiny Speck","number_of_employees":45.0,"offices":{"type":"Point","coordinates":[-123.109217,49.2824551]},"total_money_raised":17000}